     2.11           OBSERVATION DATA    C (Beidou)          RINEX VERSION / TYPE
teqc  2017Sep15                         20180516 06:03:57UTCPGM / RUN BY / DATE
Linux2.6.32-573.12.1.el6.x86_64|x86_64|gcc|Win64-MinGW64|=+ COMMENT
   0.000      (antenna height)                              COMMENT
 +22.80331380 (latitude)                                    COMMENT
+120.35725355 (longitude)                                   COMMENT
0065.626      (elevation)                                   COMMENT
BIT 2 OF LLI FLAGS DATA COLLECTED UNDER A/S CONDITION       COMMENT
aknd (COGO code)                                            COMMENT
AKND                                                        MARKER NAME
AKND                                                        MARKER NUMBER
-Unknown-           -Unknown-                               OBSERVER / AGENCY
5331K44829          TRIMBLE NETR9       5.03                REC # / TYPE / VERS
00120145            TRM57971.00     SCIT                    ANT # / TYPE
 -2973030.9896  5076081.8944  2456680.6624                  APPROX POSITION XYZ
        0.0000        0.0000        0.0000                  ANTENNA: DELTA H/E/N
     1     1                                                WAVELENGTH FACT L1/2
     4    L1    L7    C1    C7                              # / TYPES OF OBSERV
    18                                                      LEAP SECONDS
 SNR is mapped to RINEX snr flag value [0-9]                COMMENT
  L1 & L2: min(max(int(snr_dBHz/6), 0), 9)                  COMMENT
D:/gpsteqc/teqc edited: all NAVSTAR GPS satellites excluded COMMENT
D:/gpsteqc/teqc edited: all GLONASS satellites excluded     COMMENT
D:/gpsteqc/teqc edited: all SBAS satellites excluded        COMMENT
D:/gpsteqc/teqc edited: all Galileo satellites excluded     COMMENT
D:/gpsteqc/teqc edited: all QZSS satellites excluded        COMMENT
  2018     5    16     3     0    0.0000000     GPS         TIME OF FIRST OBS
                                                            END OF HEADER
 18  5 16  3  0  0.0000000  0 11C02C05C04C08C01C10C13C09C06C03C07
 195915499.733 6 151494253.936 7  37623518.414    37623513.105
 206767563.852 5 159885783.852 5  39707555.297    39707551.660
 197705563.541 6 152878451.733 6  37967280.664    37967275.484
 199500028.098 6 154266080.497 6  38311880.656    38311877.637
 191551858.129 6 148119990.980 7  36785525.781    36785516.762
 196312533.751 6 151801266.484 7  37699758.219    37699755.328
 208126356.601 6 160936530.849 6  39968479.641    39968484.863
 192265379.444 7 148671801.281 7  36922528.672    36922526.211
 196362837.593 7 151840263.791 6  37709418.805    37709414.867
 190121762.174 6 147014174.550 7  36510889.195    36510883.395
 191727151.483 7 148255559.828 7  36819185.422    36819180.035
 18  5 16  3  0  1.0000000  0 11C02C05C04C08C01C10C13C09C06C03C07
 195915491.501 6 151494247.571 7  37623517.141    37623511.727
 206767556.092 6 159885777.853 6  39707553.273    39707550.066
 197705553.871 6 152878444.259 6  37967278.883    37967273.617
 199498304.898 6 154264748.010 6  38311549.461    38311546.738
 191551839.363 6 148119976.465 7  36785521.844    36785513.277
 196312515.622 7 151801252.467 7  37699754.352    37699751.961
 208124870.794 6 160935381.936 6  39968194.141    39968199.449
 192266657.864 7 148672789.838 7  36922773.977    36922771.809
 196364403.485 6 151841474.630 6  37709719.438    37709715.297
 190121742.600 6 147014159.416 7  36510885.398    36510879.422
 191727026.526 7 148255463.206 7  36819162.023    36819155.766
 18  5 16  3  0  2.0000000  0 11C02C05C04C08C01C10C13C09C06C03C07
 195915483.093 6 151494241.063 7  37623515.125    37623510.027
 206767548.166 5 159885771.724 6  39707552.055    39707548.516
 197705544.039 6 152878436.655 6  37967276.977    37967272.199
 199496581.561 6 154263415.411 6  38311218.195    38311215.492
 191551820.412 6 148119961.813 7  36785518.219    36785509.664
 196312497.241 7 151801238.256 7  37699751.172    37699748.805
 208123384.801 6 160934232.873 6  39967908.227    39967914.215
 192267936.258 7 148673778.370 7  36923019.453    36923017.211
 196365969.252 6 151842685.383 6  37710020.383    37710016.207
 190121722.841 6 147014144.139 7  36510881.328    36510875.824
 191726901.285 7 148255366.359 7  36819138.422    36819131.980
 18  5 16  3  0  3.0000000  0 11C02C05C04C08C01C10C13C09C06C03C07
 195915474.762 6 151494234.627 7  37623513.750    37623508.031
 206767540.301 5 159885765.643 5  39707550.477    39707547.098
 197705534.301 6 152878429.124 6  37967274.648    37967270.102
 199494858.305 6 154262082.882 6  38310887.805    38310884.379
 191551801.586 6 148119947.256 7  36785515.188    36785506.230
 196312478.873 7 151801224.057 7  37699747.469    37699744.922
 208121898.832 6 160933083.824 6  39967622.766    39967628.996
 192269214.846 7 148674767.052 7  36923264.734    36923263.012
 196367535.169 7 151843896.239 6  37710321.008    37710316.711
 190121703.173 6 147014128.929 7  36510877.625    36510871.871
 191726776.052 7 148255269.515 7  36819113.680    36819107.871
 18  5 16  3  0  4.0000000  0 11C02C05C04C08C01C10C13C09C06C03C07
 195915466.428 6 151494228.179 7  37623512.023    37623506.836
 206767532.451 5 159885759.573 6  39707549.414    39707545.695
 197705524.573 6 152878421.603 6  37967272.695    37967268.395
 199493135.160 6 154260750.439 6  38310556.563    38310553.637
 191551782.743 6 148119932.687 7  36785511.570    36785502.457
 196312460.442 6 151801209.807 7  37699744.180    37699741.367
 208120412.861 6 160931934.776 6  39967337.625    39967343.570
 192270493.615 7 148675755.879 7  36923510.586    36923508.512
 196369101.158 7 151845107.164 6  37710622.258    37710617.715
 190121683.560 6 147014113.760 7  36510874.078    36510868.324
 191726650.775 7 148255172.647 7  36819089.430    36819083.633
 18  5 16  3  0  5.0000000  0 11C02C05C04C08C01C10C13C09C06C03C07
 195915457.985 6 151494221.651 7  37623510.656    37623505.391
 206767524.481 5 159885753.407 5  39707547.320    39707544.031
 197705514.707 6 152878413.973 6  37967270.867    37967266.055
 199491411.883 6 154259417.893 6  38310225.383    38310222.625
 191551763.804 6 148119918.037 7  36785507.914    36785499.266
 196312441.808 6 151801195.396 7  37699740.563    37699737.734
 208118926.731 6 160930785.607 6  39967052.055    39967057.961
 192271772.346 7 148676744.670 7  36923755.969    36923754.227
 196370667.053 6 151846318.017 6  37710922.547    37710918.625
 190121663.799 6 147014098.478 7  36510870.023    36510864.656
 191726525.244 7 148255075.577 7  36819065.688    36819059.859
 18  5 16  3  0  6.0000000  0 11C02C05C04C08C01C10C13C09C06C03C07
 195915449.560 6 151494215.136 7  37623509.047    37623503.578
 206767516.542 5 159885747.280 5  39707545.930    39707542.281
 197705504.860 6 152878406.362 6  37967268.773    37967264.223
 199489688.638 6 154258085.375 6  38309895.016    38309891.516
 191551744.836 6 148119903.371 7  36785504.133    36785495.309
 196312423.070 6 151801180.902 7  37699736.961    37699733.980
 208117440.527 6 160929636.379 6  39966767.898    39966773.117
 192273051.253 7 148677733.604 7  36924001.680    36923999.297
 196372233.025 6 151847528.926 6  37711223.047    37711219.500
 190121644.042 6 147014083.201 7  36510866.484    36510860.559
 191726399.645 7 148254978.450 7  36819041.297    36819035.797
 18  5 16  3  0  7.0000000  0 11C02C05C04C08C01C10C13C09C06C03C07
 195915441.367 6 151494208.799 7  37623507.047    37623502.305
 206767508.897 5 159885741.365 5  39707544.125    39707540.664
 197705495.288 6 152878398.959 7  37967266.898    37967262.406
 199487965.717 6 154256753.109 6  38309564.336    38309561.035
 191551726.197 6 148119888.957 7  36785500.398    36785491.551
 196312404.549 6 151801166.576 7  37699733.508    37699730.633
 208115954.550 6 160928487.326 6  39966481.875    39966487.391
 192274330.548 7 148678722.833 7  36924247.734    36924245.215
 196373799.306 7 151848740.075 6  37711524.352    37711520.227
 190121624.572 6 147014068.146 7  36510862.508    36510856.887
 191726274.247 7 148254881.483 7  36819017.234    36819011.434
 18  5 16  3  0  8.0000000  0 11C02C05C04C08C01C10C13C09C06C03C07
 195915433.186 6 151494202.471 7  37623505.938    37623500.438
 206767501.199 5 159885735.403 5  39707543.008    39707539.625
 197705485.669 6 152878391.515 6  37967265.531    37967260.691
 199486242.813 6 154255420.854 6  38309233.070    38309230.016
 191551707.503 6 148119874.503 7  36785497.164    36785488.098
 196312385.901 6 151801152.152 7  37699729.805    37699727.203
 208114468.551 6 160927338.255 6  39966196.633    39966201.793
 192275609.999 7 148679712.188 7  36924493.273    36924490.754
 196375365.649 7 151849951.264 6  37711824.953    37711820.895
 190121605.066 6 147014053.065 7  36510858.836    36510853.145
 191726148.724 7 148254784.422 7  36818993.273    36818987.496
 18  5 16  3  0  9.0000000  0 11C02C05C04C08C01C10C13C09C06C03C07
 195915424.809 6 151494195.989 7  37623504.141    37623498.871
 206767493.279 5 159885729.279 5  39707541.523    39707537.945
 197705475.884 6 152878383.951 6  37967263.336    37967258.605
 199484519.765 6 154254088.486 6  38308901.742    38308899.402
 191551688.618 6 148119859.902 7  36785493.125    36785484.465
 196312366.995 6 151801137.538 7  37699726.234    37699723.262
 208112982.298 6 160926188.986 6  39965910.859    39965916.602
 192276889.382 7 148680701.495 7  36924738.922    36924736.578
 196376931.840 7 151851162.337 6  37712125.789    37712122.117
 190121585.368 6 147014037.831 7  36510854.953    36510849.762
 191726022.910 7 148254687.135 7  36818969.305    36818963.539
 18  5 16  3  0 10.0000000  0 11C02C05C04C08C01C10C13C09C06C03C07
 195915416.845 6 151494189.831 7  37623502.359    37623497.426
 206767485.815 5 159885723.510 6  39707540.031    39707536.754
 197705466.489 6 152878376.685 6  37967261.680    37967257.004
 199482797.140 6 154252756.447 6  38308571.391    38308568.348
 191551670.172 6 148119845.640 7  36785489.461    36785480.715
 196312348.443 6 151801123.193 7  37699722.859    37699719.801
 208111496.456 6 160925040.043 6  39965625.992    39965631.617
 192278169.298 7 148681691.208 7  36924984.820    36924982.574
 196378498.456 7 151852373.744 6  37712426.430    37712422.586
 190121566.077 6 147014022.913 7  36510851.039    36510845.949
 191725897.422 7 148254590.100 7  36818945.430    36818939.031
 18  5 16  3  0 11.0000000  0 11C02C05C04C08C01C10C13C09C06C03C07
 195915408.366 6 151494183.275 7  37623500.984    37623495.551
 206767477.836 5 159885717.335 6  39707538.039    39707535.313
 197705456.654 6 152878369.084 6  37967259.891    37967255.109
 199481074.095 6 154251424.080 6  38308240.148    38308237.637
 191551651.224 6 148119830.984 7  36785485.773    36785477.039
 196312329.301 6 151801108.389 7  37699719.047    37699716.305
 208110010.081 6 160923890.686 6  39965339.914    39965345.531
 192279448.898 7 148682680.669 7  36925230.953    36925227.922
 196380064.716 7 151853584.879 6  37712727.172    37712723.426
 190121546.349 6 147014007.661 7  36510847.703    36510842.082
 191725771.392 7 148254492.645 7  36818920.711    36818915.016
 18  5 16  3  0 12.0000000  0 11C02C05C04C08C01C10C13C09C06C03C07
 195915400.273 6 151494177.014 7  37623499.578    37623494.133
 206767470.265 5 159885711.482 6  39707536.250    39707533.512
 197705447.168 6 152878361.743 6  37967257.594    37967253.785
 199479351.451 6 154250092.019 6  38307909.953    38307906.859
 191551632.654 6 148119816.623 7  36785482.195    36785473.715
 196312310.465 6 151801093.820 7  37699714.664    37699712.496
 208108524.033 6 160922741.577 6  39965054.891    39965060.414
 192280728.997 7 148683670.522 7  36925476.523    36925474.211
 196381631.358 7 151854796.306 6  37713028.141    37713024.480
 190121526.991 6 147013992.694 7  36510844.258    36510838.078
 191725645.630 7 148254395.401 7  36818896.539    36818890.496
 18  5 16  3  0 13.0000000  0 11C02C05C04C08C01C10C13C09C06C03C07
 195915392.340 6 151494170.880 7  37623497.938    37623492.504
 206767462.815 5 159885705.719 5  39707534.969    39707531.988
 197705437.834 6 152878354.529 6  37967256.109    37967251.930
 199477629.012 6 154248760.119 6  38307579.406    38307575.977
 191551614.218 6 148119802.369 7  36785478.609    36785469.898
 196312291.625 6 151801079.252 7  37699711.711    37699709.043
 208107038.094 6 160921592.556 6  39964769.602    39964774.953
 192282009.368 7 148684660.585 7  36925722.344    36925720.129
 196383198.202 7 151856007.879 6  37713328.922    37713325.336
 190121507.741 6 147013977.805 7  36510839.672    36510834.418
 191725519.926 7 148254298.198 7  36818872.875    36818866.488
 18  5 16  3  0 14.0000000  0 11C02C05C04C08C01C10C13C09C06C03C07
 195915383.961 6 151494164.405 7  37623496.391    37623490.820
 206767454.946 5 159885699.636 5  39707533.320    39707530.652
 197705428.092 6 152878346.989 6  37967253.930    37967249.516
 199475906.165 6 154247427.903 6  38307248.344    38307245.121
 191551595.401 6 148119787.812 7  36785475.078    36785466.914
 196312272.368 6 151801064.365 7  37699707.977    37699704.914
 208105551.696 6 160920443.174 6  39964483.797    39964489.371
 192283289.474 7 148685650.448 7  36925968.109    36925966.047
 196384764.707 7 151857219.197 6  37713629.523    37713626.000
 190121488.086 6 147013962.606 7  36510836.305    36510830.863
 191725393.692 7 148254200.581 7  36818848.602    36818842.223
 18  5 16  3  0 15.0000000  0 11C02C05C04C08C01C10C13C09C06C03C07
 195915375.614 6 151494157.950 7  37623494.852    37623489.723
 206767447.105 6 159885693.575 5  39707532.125    39707529.262
 197705418.344 6 152878339.453 6  37967252.508    37967247.602
 199474183.347 6 154246095.713 6  38306917.336    38306914.523
 191551576.610 6 148119773.284 7  36785471.617    36785462.773
 196312253.023 6 151801049.408 7  37699703.984    37699701.406
 208104065.276 6 160919293.774 6  39964198.477    39964203.637
 192284569.710 7 148686640.403 7  36926213.586    36926211.590
 196386331.255 7 151858430.547 6  37713930.820    37713926.785
 190121468.480 6 147013947.449 7  36510832.711    36510827.395
 191725267.440 7 148254102.960 7  36818824.688    36818818.316
 18  5 16  3  0 16.0000000  0 11C02C05C04C08C01C10C13C09C06C03C07
 195915367.313 6 151494151.531 7  37623492.625    37623487.570
 206767439.306 6 159885687.539 5  39707530.938    39707527.582
 197705408.656 6 152878331.962 6  37967250.438    37967246.043
 199472460.667 6 154244763.634 6  38306586.063    38306583.426
 191551557.858 6 148119758.784 7  36785467.773    36785459.484
 196312233.642 6 151801034.414 7  37699700.031    37699697.977
 208102578.871 6 160918144.392 6  39963912.969    39963918.168
 192285850.164 7 148687630.536 7  36926459.328    36926457.375
 196387897.962 7 151859642.029 6  37714231.438    37714227.410
 190121448.909 6 147013932.313 7  36510829.039    36510823.496
 191725141.169 7 148254005.321 7  36818800.141    36818793.938
 18  5 16  3  0 17.0000000  0 11C02C05C04C08C01C10C13C09C06C03C07
 195915359.028 6 151494145.122 7  37623491.031    37623486.082
 206767431.539 6 159885681.538 5  39707529.664    39707526.391
 197705399.030 6 152878324.517 6  37967248.352    37967243.906
 199470738.069 6 154243431.616 6  38306255.430    38306252.668
 191551539.090 6 148119744.276 7  36785464.031    36785455.914
 196312214.216 7 151801019.398 7  37699696.625    37699694.012
 208101092.453 6 160916995.007 6  39963627.680    39963633.074
 192287130.772 7 148688620.784 7  36926705.992    36926703.250
 196389464.657 7 151860853.492 6  37714532.320    37714528.410
 190121429.401 6 147013917.227 7  36510825.273    36510819.637
 191725014.800 7 148253907.605 7  36818775.492    36818769.926
 18  5 16  3  0 18.0000000  0 11C02C05C04C08C01C10C13C09C06C03C07
 195915350.684 6 151494138.667 7  37623490.398    37623484.484
 206767423.681 5 159885675.463 6  39707528.242    39707524.570
 197705389.294 6 152878316.989 7  37967246.953    37967242.113
 199469015.347 6 154242099.501 6  38305924.180    38305922.090
 191551520.291 6 148119729.746 7  36785460.656    36785452.512
 196312194.602 7 151801004.226 7  37699693.336    37699690.141
 208099605.896 6 160915845.510 6  39963342.563    39963347.770
 192288411.435 7 148689611.070 7  36926951.305    36926949.688
 196391031.375 7 151862064.978 6  37714832.797    37714829.012
 190121409.770 6 147013902.044 7  36510821.258    36510815.508
 191724888.248 7 148253809.746 7  36818751.313    36818745.387
 18  5 16  3  0 19.0000000  0 11C02C05C04C08C01C10C13C09C06C03C07
 195915342.569 6 151494132.395 7  37623489.000    37623483.207
 206767416.085 5 159885669.590 6  39707526.594    39707523.180
 197705379.831 6 152878309.674 6  37967245.172    37967240.441
 199467292.979 6 154240767.659 6  38305593.945    38305591.098
 191551501.763 6 148119715.423 7  36785457.445    36785448.781
 196312175.168 7 151800989.199 7  37699689.008    37699686.742
 208098119.610 6 160914696.220 6  39963056.875    39963062.445
 192289692.504 7 148690601.671 7  36927197.758    36927195.559
 196392598.411 7 151863276.705 6  37715134.211    37715130.336
 190121390.423 6 147013887.087 7  36510817.469    36510811.824
 191724761.905 7 148253712.048 7  36818726.477    36818721.203
 18  5 16  3  0 20.0000000  0 11C02C05C04C08C01C10C13C09C06C03C07
 195915334.249 6 151494125.957 7  37623486.820    37623481.613
 206767408.278 6 159885663.547 6  39707525.563    39707521.758
 197705370.102 6 152878302.148 6  37967242.781    37967238.359
 199465570.338 6 154239435.598 6  38305262.805    38305260.422
 191551482.961 6 148119700.874 7  36785453.781    36785445.305
 196312155.432 7 151800973.938 7  37699685.570    37699682.746
 208096633.001 6 160913546.664 6  39962771.070    39962776.781
 192290973.451 7 148691592.174 7  36927443.563    36927441.723
 196394165.238 7 151864488.279 6  37715435.258    37715431.086
 190121370.799 6 147013871.910 7  36510813.742    36510808.293
 191724635.210 7 148253614.079 7  36818702.625    36818697.016
 18  5 16  3  0 21.0000000  0 11C02C05C04C08C01C10C13C09C06C03C07
 195915325.985 6 151494119.566 7  37623485.039    37623479.695
 206767400.533 5 159885657.557 6  39707523.102    39707519.816
 197705360.497 6 152878294.722 7  37967241.328    37967236.488
 199463847.889 6 154238103.696 6  38304932.375    38304929.563
 191551464.252 6 148119686.402 7  36785450.172    36785441.504
 196312135.674 7 151800958.667 7  37699681.648    37699679.148
 208095146.480 6 160912397.194 6  39962485.805    39962491.117
 192292254.632 7 148692582.865 7  36927690.031    36927687.328
 196395732.232 7 151865699.972 6  37715735.883    37715732.375
 190121351.326 6 147013856.851 7  36510810.352    36510804.609
 191724508.540 7 148253516.127 7  36818678.367    36818672.723
 18  5 16  3  0 22.0000000  0 11C02C05C04C08C01C10C13C09C06C03C07
 195915317.390 6 151494112.916 7  37623483.289    37623478.145
 206767392.433 5 159885651.290 6  39707522.516    39707518.703
 197705350.531 6 152878287.015 7  37967239.328    37967234.652
 199462125.174 6 154236771.580 6  38304601.523    38304598.773
 191551445.258 6 148119671.713 7  36785445.945    36785437.773
 196312115.538 7 151800943.100 7  37699677.703    37699675.016
 208093659.552 6 160911247.406 6  39962199.727    39962205.609
 192293535.606 7 148693573.397 7  36927935.469    36927933.566
 196397298.928 7 151866911.441 6  37716037.195    37716033.012
 190121331.500 6 147013841.522 7  36510806.008    36510800.551
 191724381.445 7 148253417.852 7  36818654.086    36818648.191
 18  5 16  3  0 23.0000000  0 11C02C05C04C08C01C10C13C09C06C03C07
 195915309.084 6 151494106.499 7  37623481.766    37623476.621
 206767384.634 5 159885645.259 6  39707520.711    39707516.852
 197705340.876 6 152878279.547 7  37967237.148    37967232.781
 199460402.714 6 154235439.660 6  38304270.664    38304267.582
 191551426.534 6 148119657.232 7  36785442.688    36785434.375
 196312095.606 7 151800927.687 7  37699674.063    37699671.250
 208092172.920 6 160910097.857 6  39961914.219    39961920.098
 192294817.035 7 148694564.283 7  36928181.641    36928179.484
 196398865.997 7 151868123.201 6  37716337.742    37716333.844
 190121311.967 6 147013826.417 7  36510802.570    36510796.938
 191724254.543 7 148253319.721 7  36818629.688    36818623.805
 18  5 16  3  0 24.0000000  0 11C02C05C04C08C01C10C13C09C06C03C07
 195915300.751 6 151494100.052 7  37623480.250    37623475.145
 206767376.849 6 159885639.234 6  39707519.102    39707515.426
 197705331.164 6 152878272.041 7  37967235.625    37967231.047
 199458680.262 6 154234107.761 6  38303940.242    38303936.680
 191551407.780 6 148119642.733 7  36785439.484    36785430.730
 196312075.496 7 151800912.138 7  37699670.227    37699667.488
 208090686.202 6 160908948.235 6  39961629.359    39961634.547
 192296098.558 7 148695555.235 7  36928427.734    36928425.555
 196400433.053 7 151869334.947 6  37716639.148    37716634.707
 190121292.379 6 147013811.268 7  36510798.797    36510793.055
 191724127.530 7 148253221.507 7  36818605.023    36818599.293
 18  5 16  3  0 25.0000000  0 11C02C05C04C08C01C10C13C09C06C03C07
 195915292.534 6 151494093.698 7  37623478.867    37623473.637
 206767369.107 5 159885633.242 6  39707517.133    39707514.313
 197705321.600 6 152878264.637 6  37967234.188    37967229.152
 199456957.978 6 154232775.977 6  38303609.781    38303606.297
 191551389.093 6 148119628.285 7  36785436.070    36785426.750
 196312055.499 6 151800896.672 7  37699666.391    37699663.918
 208089199.517 6 160907798.635 6  39961344.188    39961349.078
 192297380.308 7 148696546.360 7  36928673.547    36928671.730
 196402000.263 7 151870546.809 6  37716939.703    37716936.102
 190121272.931 6 147013796.230 7  36510795.313    36510789.398
 191724000.548 7 148253123.320 7  36818580.484    36818574.758
 18  5 16  3  0 26.0000000  0 11C02C05C04C08C01C10C13C09C06C03C07
 195915284.021 6 151494087.112 7  37623476.875    37623471.594
 206767361.100 6 159885627.051 6  39707515.773    39707512.832
 197705311.738 6 152878257.007 6  37967231.797    37967227.043
 199455235.473 6 154231444.029 6  38303278.609    38303275.629
 191551370.186 6 148119613.668 7  36785431.852    36785423.203
 196312035.064 6 151800880.869 7  37699662.313    37699659.887
 208087712.567 6 160906648.832 6  39961058.000    39961063.629
 192298661.957 7 148697537.415 7  36928919.953    36928917.742
 196403567.272 7 151871758.527 6  37717240.031    37717236.734
 190121253.207 6 147013780.975 7  36510791.164    36510786.063
 191723873.201 7 148253024.844 7  36818556.539    36818550.598
 18  5 16  3  0 27.0000000  0 11C02C05C04C08C01C10C13C09C06C03C07
 195915275.741 6 151494080.712 7  37623475.258    37623469.578
 206767353.360 6 159885621.066 5  39707514.359    39707510.906
 197705302.109 6 152878249.563 6  37967230.500    37967225.355
 199453513.208 6 154230112.258 6  38302947.414    38302944.918
 191551351.516 6 148119599.226 7  36785428.047    36785419.438
 196312014.847 6 151800865.228 7  37699658.844    37699655.852
 208086225.754 6 160905499.137 6  39960773.109    39960777.930
 192299943.941 7 148698528.726 7  36929165.961    36929163.719
 196405134.567 7 151872970.454 6  37717541.375    37717537.648
 190121233.704 6 147013765.898 7  36510787.242    36510782.336
 191723745.987 7 148252926.469 7  36818531.992    36818526.137
 18  5 16  3  0 28.0000000  0 11C02C05C04C08C01C10C13C09C06C03C07
 195915267.367 6 151494074.236 7  37623473.578    37623468.375
 206767345.487 6 159885614.985 6  39707512.961    39707509.590
 197705292.379 6 152878242.038 6  37967228.617    37967223.688
 199451790.872 6 154228780.443 6  38302616.859    38302614.328
 191551332.730 6 148119584.698 7  36785424.570    36785416.148
 196311994.412 6 151800849.425 7  37699654.391    37699652.125
 208084738.854 6 160904349.373 6  39960486.883    39960492.094
 192301225.965 7 148699520.066 7  36929412.469    36929409.875
 196406701.820 7 151874182.349 6  37717842.477    37717838.836
 190121214.093 6 147013750.735 7  36510783.414    36510778.051
 191723618.570 7 148252827.945 7  36818507.008    36818501.508
 18  5 16  3  0 29.0000000  0 11C02C05C04C08C01C10C13C09C06C03C07
 195915259.141 6 151494067.878 7  37623472.438    37623466.945
 206767337.756 5 159885609.011 6  39707511.414    39707507.992
 197705282.751 6 152878234.598 6  37967226.609    37967221.527
 199450068.712 6 154227448.759 6  38302286.297    38302283.520
 191551314.072 6 148119570.270 7  36785421.289    36785412.629
 196311974.018 6 151800833.649 7  37699650.648    37699647.656
 208083252.035 6 160903199.668 6  39960201.281    39960206.887
 192302508.258 7 148700511.611 7  36929658.977    36929656.363
 196408269.251 6 151875394.387 6  37718143.539    37718139.738
 190121194.639 6 147013735.692 7  36510779.953    36510774.168
 191723491.220 7 148252729.467 7  36818483.133    36818476.980
 18  5 16  3  0 30.0000000  0 11C02C05C04C08C01C10C13C09C06C03C07
 195915250.977 6 151494061.564 7  37623470.469    37623465.391
 206767330.105 5 159885603.084 5  39707510.023    39707506.738
 197705273.261 6 152878227.265 6  37967224.570    37967219.438
 199448346.699 6 154226117.190 6  38301955.984    38301952.699
 191551295.513 6 148119555.919 7  36785417.344    36785408.996
 196311953.674 7 151800817.917 7  37699646.875    37699643.816
 208081765.244 6 160902049.983 6  39959916.398    39959921.344
 192303790.783 7 148701503.344 7  36929905.133    36929902.918
 196409836.819 7 151876606.527 6  37718444.320    37718440.602
 190121175.261 6 147013720.707 7  36510776.406    36510771.043
 191723363.878 7 148252630.996 7  36818458.742    36818452.563
 18  5 16  3  0 31.0000000  0 11C02C05C04C08C01C10C13C09C06C03C07
 195915242.648 6 151494055.123 7  37623469.328    37623463.852
 206767322.306 5 159885597.060 5  39707508.797    39707505.500
 197705263.622 6 152878219.810 6  37967222.359    37967217.715
 199446624.512 6 154224785.490 6  38301625.297    38301621.762
 191551276.783 6 148119541.436 7  36785413.383    36785405.258
 196311933.019 6 151800801.954 7  37699643.117    37699639.855
 208080278.265 6 160900900.160 6  39959630.641    39959635.832
 192305073.270 7 148702495.044 7  36930151.438    36930149.031
 196411404.274 7 151877818.576 6  37718745.320    37718741.406
 190121155.728 6 147013705.601 7  36510772.594    36510766.957
 191723236.307 7 148252532.351 7  36818434.078    36818428.566
 18  5 16  3  0 32.0000000  0 11C02C05C04C08C01C10C13C09C06C03C07
 195915234.404 6 151494048.746 7  37623468.008    37623462.391
 206767314.554 5 159885591.064 5  39707507.203    39707503.699
 197705254.036 6 152878212.397 6  37967221.133    37967215.988
 199444902.477 6 154223453.900 6  38301294.859    38301291.063
 191551258.150 6 148119527.027 7  36785410.406    36785401.777
 196311912.411 6 151800786.016 7  37699638.922    37699635.977
 208078791.339 6 160899750.370 6  39959345.070    39959350.086
 192306355.958 7 148703486.902 7  36930397.477    36930395.414
 196412971.856 7 151879030.734 6  37719046.750    37719043.031
 190121136.277 6 147013690.563 7  36510769.008    36510763.191
 191723108.675 7 148252433.654 7  36818409.836    36818403.738
 18  5 16  3  0 33.0000000  0 11C02C05C04C08C01C10C13C09C06C03C07
 195915226.190 6 151494042.394 7  37623466.336    37623460.359
 206767306.851 5 159885585.104 5  39707505.664    39707502.359
 197705244.496 6 152878205.017 6  37967219.117    37967214.375
 199443180.501 6 154222122.357 6  38300963.914    38300960.672
 191551239.544 6 148119512.642 7  36785406.664    36785398.387
 196311891.720 6 151800770.025 7  37699634.656    37699631.906
 208077304.386 6 160898600.563 6  39959059.508    39959064.340
 192307638.843 7 148704478.908 7  36930643.992    36930642.008
 196414539.546 7 151880242.970 6  37719347.773    37719343.828
 190121116.830 6 147013675.526 7  36510765.234    36510759.488
 191722980.996 7 148252334.929 7  36818385.023    36818378.945
 18  5 16  3  0 34.0000000  0 11C02C05C04C08C01C10C13C09C06C03C07
 195915217.820 6 151494035.921 7  37623464.195    37623458.977
 206767298.960 5 159885579.003 5  39707504.563    39707501.137
 197705234.793 6 152878197.508 7  37967217.008    37967212.484
 199441458.422 6 154220790.744 6  38300632.961    38300629.449
 191551220.798 6 148119498.145 7  36785403.453    36785395.016
 196311870.818 6 151800753.864 7  37699630.781    37699628.074
 208075817.218 6 160897450.589 6  39958774.063    39958778.965
 192308921.683 7 148705470.880 7  36930890.492    36930888.125
 196416107.117 7 151881455.114 6  37719649.078    37719644.918
 190121097.283 6 147013660.407 7  36510760.906    36510755.680
 191722853.073 7 148252236.007 7  36818360.422    36818354.160
 18  5 16  3  0 35.0000000  0 11C02C05C04C08C01C10C13C09C06C03C07
 195915209.387 6 151494029.397 7  37623462.781    37623457.344
 206767291.081 6 159885572.914 5  39707502.672    39707499.293
 197705225.020 6 152878189.957 6  37967215.469    37967210.441
 199439736.326 6 154219459.104 6  38300302.727    38300298.770
 191551201.976 6 148119483.590 7  36785399.617    36785391.086
 196311849.799 6 151800737.608 7  37699626.078    37699624.160
 208074329.973 6 160896300.559 6  39958488.273    39958493.484
 192310204.632 7 148706462.930 7  36931136.766    36931134.723
 196417674.669 7 151882667.245 6  37719949.938    37719946.109
 190121077.640 6 147013645.218 7  36510757.281    36510751.828
 191722725.017 7 148252136.988 7  36818335.609    36818329.781
 18  5 16  3  0 36.0000000  0 11C02C05C04C08C01C10C13C09C06C03C07
 195915200.865 6 151494022.810 7  37623461.188    37623455.559
 206767283.064 5 159885566.700 5  39707501.281    39707497.648
 197705215.170 6 152878182.334 6  37967213.703    37967208.672
 199438014.146 6 154218127.409 6  38299971.508    38299968.148
 191551183.083 6 148119468.981 7  36785395.766    36785387.715
 196311828.581 6 151800721.196 7  37699622.633    37699620.098
 208072842.650 6 160895150.456 6  39958203.250    39958207.961
 192311487.638 7 148707455.027 7  36931383.281    36931381.063
 196419242.220 7 151883879.372 6  37720250.609    37720246.887
 190121057.938 6 147013629.981 7  36510753.531    36510748.480
 191722596.803 7 148252037.847 7  36818311.328    36818305.445
 18  5 16  3  0 37.0000000  0 11C02C05C04C08C01C10C13C09C06C03C07
 195915192.457 6 151494016.308 7  37623459.250    37623454.188
 206767275.177 6 159885560.599 5  39707499.578    39707495.863
 197705205.466 6 152878174.833 6  37967211.156    37967206.691
 199436292.141 6 154216795.850 6  38299640.875    38299637.867
 191551164.325 6 148119454.474 7  36785392.164    36785383.957
 196311807.404 7 151800704.815 7  37699618.773    37699616.035
 208071355.318 6 160894000.356 6  39957917.016    39957922.184
 192312770.899 7 148708447.327 7  36931629.977    36931627.574
 196420809.910 7 151885091.608 6  37720552.289    37720547.816
 190121038.358 6 147013614.843 7  36510749.914    36510744.594
 191722468.608 7 148251938.720 7  36818286.570    36818280.918
 18  5 16  3  0 38.0000000  0 11C02C05C04C08C01C10C13C09C06C03C07
 195915184.178 6 151494009.907 7  37623457.633    37623452.238
 206767267.416 6 159885554.597 6  39707497.570    39707494.512
 197705195.830 6 152878167.382 6  37967209.383    37967204.906
 199434570.287 6 154215464.407 6  38299310.047    38299307.207
 191551145.644 6 148119440.027 7  36785389.047    36785380.602
 196311786.227 7 151800688.436 7  37699614.813    37699611.816
 208069868.116 6 160892850.355 6  39957630.859    39957636.473
 192314054.367 7 148709439.790 7  36931876.227    36931873.914
 196422377.792 7 151886303.994 6  37720853.617    37720848.957
 190121018.884 6 147013599.785 7  36510746.398    36510740.750
 191722340.452 7 148251839.618 7  36818262.047    36818255.996
 18  5 16  3  0 39.0000000  0 11C02C05C04C08C01C10C13C09C06C03C07
 195915175.728 6 151494003.368 7  37623456.141    37623450.824
 206767259.460 5 159885548.455 6  39707495.820    39707492.863
 197705186.039 6 152878159.814 6  37967207.406    37967202.891
 199432848.322 6 154214132.871 6  38298979.461    38298976.039
 191551126.818 6 148119425.470 7  36785385.117    36785376.750
 196311764.842 7 151800671.905 7  37699610.602    37699607.180
 208068380.699 6 160891700.198 6  39957345.156    39957351.152
 192315337.851 7 148710432.264 7  36932122.773    36932120.363
 196423945.531 7 151887516.261 6  37721154.375    37721150.328
 190120999.239 6 147013584.598 7  36510742.422    36510737.180
 191722212.015 7 148251740.300 7  36818237.203    36818231.383
 18  5 16  3  0 40.0000000  0 11C02C05C04C08C01C10C13C09C06C03C07
 195915167.560 6 151493997.054 7  37623454.102    37623449.188
 206767251.846 5 159885542.568 6  39707495.391    39707491.262
 197705176.606 6 152878152.517 6  37967205.969    37967201.672
 199431126.700 6 154212801.598 6  38298649.305    38298645.723
 191551108.323 6 148119411.171 7  36785381.625    36785373.238
 196311743.712 7 151800655.572 7  37699606.359    37699603.551
 208066893.606 6 160890550.288 6  39957059.992    39957065.543
 192316621.800 7 148711425.095 7  36932369.547    36932366.992
 196425513.670 7 151888728.841 6  37721455.414    37721451.223
 190120979.953 6 147013569.677 7  36510738.836    36510733.336
 191722083.849 7 148251641.190 7  36818212.797    36818206.797
 18  5 16  3  0 41.0000000  0 11C02C05C04C08C01C10C13C09C06C03C07
 195915158.866 6 151493990.324 7  37623452.977    37623447.336
 206767243.678 6 159885536.254 5  39707493.859    39707489.480
 197705166.600 6 152878144.774 6  37967203.945    37967199.328
 199429404.541 6 154211469.909 6  38298318.680    38298315.102
 191551089.278 6 148119396.446 7  36785378.070    36785369.699
 196311721.917 6 151800638.722 7  37699602.141    37699599.578
 208065405.874 6 160889399.880 6  39956774.344    39956779.660
 192317905.311 7 148712417.585 7  36932615.828    36932613.641
 196427081.309 7 151889941.042 6  37721756.484    37721752.363
 190120960.063 6 147013554.301 7  36510734.836    36510729.551
 191721955.045 7 148251541.592 7  36818188.000    36818181.922
 18  5 16  3  0 42.0000000  0 11C02C05C04C08C01C10C13C09C06C03C07
 195915150.351 6 151493983.737 7  37623452.141    37623445.848
 206767235.718 5 159885530.094 5  39707491.836    39707487.805
 197705156.781 6 152878137.181 6  37967202.227    37967197.406
 199427682.624 6 154210138.414 6  38297987.352    38297984.145
 191551070.408 6 148119381.854 7  36785374.117    36785366.098
 196311700.222 6 151800621.949 7  37699597.906    37699595.324
 208063918.293 6 160888249.590 6  39956489.313    39956493.961
 192319189.141 7 148713410.323 7  36932862.227    36932859.926
 196428649.160 7 151891153.399 6  37722057.578    37722053.676
 190120940.388 6 147013539.086 7  36510730.969    36510725.820
 191721826.329 7 148251442.061 7  36818163.258    36818157.703
 18  5 16  3  0 43.0000000  0 11C02C05C04C08C01C10C13C09C06C03C07
 195915142.020 6 151493977.297 7  37623449.703    37623444.242
 206767227.856 6 159885524.017 6  39707490.648    39707486.465
 197705147.139 6 152878129.727 6  37967199.961    37967195.625
 199425960.881 6 154208807.057 6  38297657.039    38297653.383
 191551051.700 6 148119367.385 7  36785370.445    36785362.500
 196311678.613 7 151800605.233 7  37699594.391    37699591.555
 208062430.869 6 160887099.417 6  39956203.492    39956208.477
 192320473.262 7 148714403.282 7  36933109.070    36933106.441
 196430217.240 7 151892365.942 6  37722358.430    37722354.832
 190120920.884 6 147013524.005 7  36510727.195    36510721.949
 191721697.678 7 148251342.578 7  36818138.695    36818132.801
 18  5 16  3  0 44.0000000  0 11C02C05C04C08C01C10C13C09C06C03C07
 195915133.682 6 151493970.847 7  37623448.102    37623442.793
 206767220.092 6 159885518.007 6  39707489.383    39707484.863
 197705137.512 6 152878122.279 7  37967198.125    37967193.941
 199424239.289 6 154207475.813 6  38297326.406    38297323.039
 191551033.081 6 148119352.987 7  36785367.180    36785358.996
 196311656.990 6 151800588.516 7  37699589.500    37699587.449
 208060943.466 6 160885949.258 6  39955917.602    39955923.012
 192321757.570 7 148715396.389 7  36933355.203    36933353.211
 196431785.459 7 151893578.580 6  37722659.734    37722656.180
 190120901.434 6 147013508.961 7  36510723.688    36510718.383
 191721569.003 7 148251243.077 7  36818113.898    36818107.961
 18  5 16  3  0 45.0000000  0 11C02C05C04C08C01C10C13C09C06C03C07
 195915125.166 6 151493964.264 7  37623446.688    37623441.250
 206767212.105 5 159885511.827 5  39707487.914    39707483.199
 197705127.699 6 152878114.690 6  37967196.266    37967191.930
 199422517.467 6 154206144.396 6  38296995.648    38296991.805
 191551014.201 6 148119338.385 7  36785363.328    36785355.273
 196311635.055 7 151800571.554 7  37699585.914    37699583.309
 208059455.791 6 160884798.891 6  39955631.813    39955637.230
 192323041.830 7 148716389.460 7  36933601.820    36933599.758
 196433353.457 6 151894791.053 6  37722960.438    37722956.785
 190120881.741 6 147013493.736 7  36510720.227    36510714.457
 191721440.044 7 148251143.356 7  36818088.930    36818083.410
 18  5 16  3  0 46.0000000  0 11C02C05C04C08C01C10C13C09C06C03C07
 195915116.794 6 151493957.797 7  37623445.109    37623439.914
 206767204.295 5 159885505.781 5  39707486.445    39707481.883
 197705118.068 6 152878107.248 6  37967194.219    37967190.023
 199420795.899 6 154204813.171 6  38296665.242    38296661.672
 191550995.530 6 148119323.946 7  36785360.109    36785351.539
 196311613.191 7 151800554.644 7  37699581.758    37699578.770
 208057968.284 6 160883648.656 6  39955346.102    39955351.172
 192324326.372 7 148717382.756 7  36933848.781    36933846.270
 196434921.718 7 151896003.734 6  37723262.430    37723257.863
 190120862.275 6 147013478.682 7  36510716.023    36510711.004
 191721311.141 7 148251043.681 7  36818064.172    36818058.734
 18  5 16  3  0 47.0000000  0 11C02C05C04C08C01C10C13C09C06C03C07
 195915108.806 6 151493951.620 7  37623443.805    37623437.992
 206767196.777 5 159885499.970 5  39707485.125    39707480.328
 197705108.762 6 152878100.050 6  37967192.727    37967188.547
 199419074.656 6 154203482.197 6  38296334.406    38296330.895
 191550977.218 6 148119309.784 7  36785356.789    36785347.957
 196311591.589 7 151800537.944 7  37699577.438    37699574.461
 208056481.010 6 160882498.601 6  39955060.594    39955065.684
 192325611.396 7 148718376.416 7  36934095.344    36934093.211
 196436490.348 7 151897216.694 6  37723563.109    37723559.203
 190120843.112 6 147013463.862 7  36510711.953    36510707.008
 191721182.484 7 148250944.200 7  36818039.711    36818033.797
 18  5 16  3  0 48.0000000  0 11C02C05C04C08C01C10C13C09C06C03C07
 195915100.405 6 151493945.122 7  37623442.016    37623436.941
 206767188.989 5 159885493.951 5  39707483.430    39707478.766
 197705099.064 6 152878092.553 6  37967190.938    37967186.422
 199417353.090 6 154202150.978 6  38296003.758    38296000.266
 191550958.481 6 148119295.299 7  36785352.711    36785344.191
 196311569.511 7 151800520.876 7  37699572.836    37699570.398
 208054993.371 6 160881348.269 6  39954775.070    39954780.012
 192326896.177 7 148719369.891 7  36934342.523    36934340.016
 196438058.663 7 151898429.419 6  37723864.484    37723860.570
 190120823.564 6 147013448.748 7  36510709.055    36510703.113
 191721053.359 7 148250844.346 7  36818015.070    36818008.629
 18  5 16  3  0 49.0000000  0 11C02C05C04C08C01C10C13C09C06C03C07
 195915092.092 6 151493938.699 7  37623440.164    37623435.301
 206767181.096 5 159885487.843 5  39707481.680    39707477.465
 197705089.446 6 152878085.116 6  37967189.250    37967184.711
 199415631.605 6 154200819.818 6  38295673.320    38295669.559
 191550939.840 6 148119280.886 7  36785348.781    36785340.320
 196311547.435 6 151800503.796 7  37699569.023    37699565.855
 208053505.733 6 160880197.931 6  39954488.844    39954494.613
 192328181.157 7 148720363.512 7  36934589.156    36934586.797
 196439627.066 7 151899642.209 6  37724165.711    37724161.828
 190120804.105 6 147013433.703 7  36510704.977    36510699.691
 191720924.236 7 148250744.499 7  36817989.781    36817984.195
 18  5 16  3  0 50.0000000  0 11C02C05C04C08C01C10C13C09C06C03C07
 195915083.610 6 151493932.128 7  37623438.695    37623433.395
 206767173.169 5 159885481.723 5  39707479.719    39707476.105
 197705079.690 6 152878077.577 6  37967187.461    37967182.520
 199413910.062 6 154199488.615 6  38295342.828    38295339.211
 191550921.032 6 148119266.344 7  36785345.758    36785336.797
 196311525.139 6 151800486.549 7  37699564.281    37699561.914
 208052017.936 6 160879047.470 6  39954203.531    39954208.680
 192329466.127 7 148721357.130 7  36934836.055    36934833.527
 196441195.435 7 151900854.967 6  37724466.773    37724462.977
 190120784.514 6 147013418.557 7  36510701.211    36510695.711
 191720794.873 7 148250644.473 7  36817965.148    36817959.195
 18  5 16  3  0 51.0000000  0 11C02C05C04C08C01C10C13C09C06C03C07
 195915075.389 6 151493925.777 7  37623437.297    37623431.793
 206767165.475 6 159885475.773 5  39707478.461    39707474.445
 197705070.188 6 152878070.221 6  37967185.227    37967181.031
 199412188.736 6 154198157.580 6  38295011.922    38295008.789
 191550902.522 6 148119252.034 7  36785342.258    36785333.613
 196311503.000 6 151800469.432 7  37699560.273    37699557.453
 208050530.301 6 160877897.138 6  39953917.883    39953923.098
 192330751.486 7 148722351.052 7  36935082.875    36935080.441
 196442764.038 7 151902067.910 6  37724767.883    37724764.168
 190120765.128 6 147013403.568 7  36510697.602    36510691.777
 191720665.664 7 148250544.561 7  36817940.305    36817934.406
 18  5 16  3  0 52.0000000  0 11C02C05C04C08C01C10C13C09C06C03C07
 195915067.034 6 151493919.311 7  37623435.500    37623430.000
 206767157.666 6 159885469.727 5  39707477.297    39707472.922
 197705060.552 6 152878062.763 6  37967183.445    37967179.531
 199410467.401 6 154196826.533 6  38294681.617    38294678.242
 191550883.876 6 148119237.612 7  36785338.453    36785330.004
 196311480.721 7 151800452.200 7  37699555.914    37699553.469
 208049042.564 6 160876746.724 6  39953631.961    39953637.273
 192332036.894 7 148723345.013 7  36935329.609    36935327.219
 196444332.616 6 151903280.829 6  37725069.219    37725065.555
 190120745.679 6 147013388.525 7  36510693.875    36510688.352
 191720536.279 7 148250444.507 7  36817915.797    36817909.629
 18  5 16  3  0 53.0000000  0 11C02C05C04C08C01C10C13C09C06C03C07
 195915058.625 6 151493912.804 7  37623433.750    37623428.773
 206767149.744 5 159885463.607 5  39707475.445    39707471.531
 197705050.824 6 152878055.244 6  37967181.820    37967177.172
 199408745.992 6 154195495.426 6  38294351.188    38294347.469
 191550865.128 6 148119223.111 7  36785334.883    36785326.129
 196311458.191 7 151800434.776 7  37699551.828    37699549.102
 208047554.679 6 160875596.194 6  39953346.656    39953351.758
 192333322.342 7 148724339.003 7  36935576.250    36935574.172
 196445901.174 6 151904493.736 6  37725370.070    37725366.633
 190120726.133 6 147013373.407 7  36510690.023    36510684.508
 191720406.713 7 148250344.321 7  36817891.055    36817884.445
 18  5 16  3  0 54.0000000  0 11C02C05C04C08C01C10C13C09C06C03C07
 195915050.268 6 151493906.352 7  37623432.047    37623426.695
 206767141.975 5 159885457.596 5  39707473.961    39707470.227
 197705041.201 6 152878047.809 6  37967180.180    37967175.613
 199407024.710 6 154194164.424 6  38294020.984    38294017.008
 191550846.487 6 148119208.693 7  36785331.453    36785322.910
 196311435.701 6 151800417.387 7  37699547.266    37699544.387
 208046066.862 6 160874445.720 6  39953060.789    39953065.875
 192334608.002 7 148725333.155 7  36935823.305    36935820.992
 196447469.876 6 151905706.751 6  37725672.141    37725668.055
 190120706.663 6 147013358.353 7  36510686.391    36510680.699
 191720277.145 7 148250244.128 7  36817865.633    36817859.750
 18  5 16  3  0 55.0000000  0 11C02C05C04C08C01C10C13C09C06C03C07
 195915042.350 6 151493900.227 7  37623430.492    37623425.176
 206767134.575 6 159885451.871 5  39707473.047    39707469.047
 197705032.045 6 152878040.722 6  37967178.148    37967173.566
 199405303.878 6 154192833.764 6  38293690.102    38293686.559
 191550828.295 6 148119194.626 7  36785327.703    36785318.977
 196311413.587 7 151800400.286 7  37699542.914    37699540.563
 208044579.428 6 160873295.545 6  39952775.234    39952780.145
 192335894.250 7 148726327.762 7  36936070.227    36936068.043
 196449039.020 7 151906920.114 6  37725972.461    37725969.129
 190120687.665 6 147013343.663 7  36510682.539    36510676.719
 191720147.952 7 148250144.227 7  36817841.320    36817834.961
 18  5 16  3  0 56.0000000  0 11C02C05C04C08C01C10C13C09C06C03C07
 195915034.064 6 151493893.823 7  37623428.609    37623423.848
 206767126.842 5 159885445.886 5  39707471.164    39707467.563
 197705022.478 6 152878033.327 6  37967176.266    37967171.863
 199403582.748 6 154191502.884 6  38293359.539    38293356.285
 191550809.714 6 148119180.258 7  36785324.016    36785315.559
 196311391.006 6 151800382.820 7  37699538.789    37699536.422
 208043091.600 6 160872145.060 6  39952489.734    39952494.438
 192337180.236 7 148727322.160 7  36936317.156    36936314.883
 196450607.870 6 151908133.246 6  37726274.828    37726270.125
 190120668.257 6 147013328.657 7  36510678.727    36510673.109
 191720018.268 7 148250043.948 7  36817815.969    36817810.207
 18  5 16  3  0 57.0000000  0 11C02C05C04C08C01C10C13C09C06C03C07
 195915025.633 6 151493887.301 7  37623427.398    37623422.047
 206767118.942 5 159885439.775 5  39707469.609    39707465.980
 197705012.758 6 152878025.813 6  37967174.445    37967169.992
 199401861.471 6 154190171.879 6  38293029.258    38293025.543
 191550790.962 6 148119165.756 7  36785320.508    36785311.785
 196311368.171 6 151800365.165 7  37699534.516    37699532.074
 208041603.585 6 160870994.434 6  39952203.875    39952208.684
 192338466.181 7 148728316.535 7  36936564.133    36936561.695
 196452176.599 7 151909346.287 6  37726575.461    37726571.730
 190120648.708 6 147013313.537 7  36510675.000    36510669.730
 191719888.329 7 148249943.471 7  36817791.313    36817785.551
 18  5 16  3  0 58.0000000  0 11C02C05C04C08C01C10C13C09C06C03C07
 195915017.224 6 151493880.795 7  37623426.008    37623420.473
 206767111.055 5 159885433.687 5  39707467.945    39707464.313
 197705003.097 6 152878018.340 6  37967172.313    37967168.266
 199400140.301 6 154188840.965 6  38292698.609    38292695.305
 191550772.255 6 148119151.291 7  36785316.906    36785308.688
 196311345.280 6 151800347.463 7  37699530.180    37699527.914
 208040115.557 6 160869843.798 6  39951917.938    39951922.746
 192339752.342 7 148729311.077 7  36936810.820    36936808.848
 196453745.436 7 151910559.413 6  37726877.242    37726872.879
 190120629.203 6 147013298.460 7  36510671.383    36510666.086
 191719758.359 7 148249842.969 7  36817766.305    36817760.609
 18  5 16  3  0 59.0000000  0 11C02C05C04C08C01C10C13C09C06C03C07
 195915008.805 6 151493874.288 7  37623424.789    37623418.848
 206767103.163 5 159885427.587 5  39707466.797    39707462.988
 197704993.376 6 152878010.826 6  37967170.688    37967166.195
 199398419.098 6 154187510.020 6  38292368.016    38292364.609
 191550753.549 6 148119136.834 7  36785312.977    36785304.871
 196311322.249 6 151800329.658 7  37699525.609    37699523.098
 208038627.412 6 160868693.073 6  39951632.344    39951637.031
 192341038.569 7 148730305.676 7  36937058.102    36937055.828
 196455314.292 7 151911772.545 6  37727178.156    37727174.090
 190120609.661 6 147013283.348 7  36510667.828    36510662.129
 191719628.269 7 148249742.374 7  36817741.375    36817735.512
 18  5 16  3  1  0.0000000  0 11C02C05C04C08C01C10C13C09C06C03C07
 195915000.276 6 151493867.685 7  37623422.875    37623417.219
 206767095.140 6 159885421.385 5  39707465.164    39707460.785
 197704983.623 6 152878003.284 6  37967169.133    37967164.484
 199396697.857 6 154186179.052 6  38292037.219    38292033.785
 191550734.746 6 148119122.290 7  36785309.820    36785301.477
 196311299.073 6 151800311.738 7  37699520.758    37699518.211
 208037139.200 6 160867542.295 6  39951345.945    39951351.273
 192342324.891 7 148731300.335 7  36937304.867    36937302.875
 196456883.133 7 151912985.668 6  37727479.430    37727475.281
 190120590.048 6 147013268.178 7  36510663.836    36510658.422
 191719498.036 7 148249641.671 7  36817716.203    36817710.379
 18  5 16  3  1  1.0000000  0 11C02C05C04C08C01C10C13C09C06C03C07
 195914991.789 6 151493861.124 7  37623421.227    37623415.664
 206767087.242 5 159885415.272 5  39707463.383    39707459.520
 197704973.871 6 152877995.741 6  37967167.031    37967162.559
 199394976.742 6 154184848.181 6  38291706.984    38291703.348
 191550716.010 6 148119107.803 7  36785306.086    36785297.613
 196311275.899 6 151800293.822 6  37699516.781    37699513.758
 208035650.981 6 160866391.507 6  39951060.648    39951065.809
 192343611.383 7 148732295.124 7  36937552.594    36937550.176
 196458452.061 7 151914198.866 6  37727781.344    37727776.828
 190120570.490 6 147013253.055 7  36510660.008    36510654.504
 191719367.743 7 148249540.917 7  36817691.195    36817685.516
 18  5 16  3  1  2.0000000  0 11C02C05C04C08C01C10C13C09C06C03C07
 195914983.425 6 151493854.658 7  37623419.430    37623413.813
 206767079.397 6 159885409.200 5  39707461.633    39707458.020
 197704964.270 6 152877988.313 6  37967164.984    37967160.547
 199393255.728 6 154183517.381 6  38291375.555    38291373.078
 191550697.374 6 148119093.392 7  36785302.867    36785294.102
 196311252.709 6 151800275.883 6  37699512.563    37699509.594
 208034162.836 6 160865240.776 6  39950775.000    39950779.844
 192344898.111 7 148733290.100 7  36937799.078    36937796.832
 196460021.151 7 151915412.180 6  37728082.258    37728078.398
 190120551.024 6 147013238.001 7  36510655.977    36510650.895
 191719237.453 7 148249440.172 7  36817665.992    36817660.332
 18  5 16  3  1  3.0000000  0 11C02C05C04C08C01C10C13C09C06C03C07
 195914974.893 6 151493848.065 7  37623417.227    37623412.328
 206767071.399 6 159885403.012 5  39707460.281    39707456.160
 197704954.486 6 152877980.744 6  37967163.500    37967158.543
 199391534.634 6 154182186.521 6  38291045.727    38291042.637
 191550678.580 6 148119078.862 7  36785299.156    36785290.738
 196311229.312 6 151800257.792 7  37699507.844    37699504.871
 208032674.500 6 160864089.896 6  39950488.828    39950493.973
 192346184.831 7 148734285.075 7  36938046.195    36938043.711
 196461590.150 7 151916625.424 6  37728382.898    37728379.730
 190120531.401 6 147013222.833 7  36510653.102    36510647.242
 191719106.928 7 148249339.246 7  36817641.258    36817635.098
 18  5 16  3  1  4.0000000  0 11C02C05C04C08C01C10C13C09C06C03C07
 195914966.516 6 151493841.581 7  37623416.031    37623410.777
 206767063.542 6 159885396.937 5  39707458.328    39707455.180
 197704944.872 6 152877973.313 6  37967161.680    37967156.605
 199389813.673 6 154180855.762 6  38290715.156    38290711.680
 191550659.961 6 148119064.460 7  36785295.563    36785287.293
 196311205.996 7 151800239.760 7  37699503.391    37699500.535
 208031186.306 6 160862939.131 6  39950203.234    39950208.594
 192347471.845 7 148735280.277 7  36938293.359    36938291.180
 196463159.326 7 151917838.812 6  37728684.633    37728681.227
 190120511.976 6 147013207.814 7  36510649.023    36510643.590
 191718976.501 7 148249238.391 7  36817616.102    36817610.195
 18  5 16  3  1  5.0000000  0 11C02C05C04C08C01C10C13C09C06C03C07
 195914958.273 6 151493835.205 7  37623413.984    37623409.117
 206767055.899 5 159885391.020 5  39707457.727    39707453.641
 197704935.421 6 152877966.006 6  37967159.789    37967155.094
 199388092.971 6 154179525.215 6  38290384.352    38290381.270
 191550641.502 6 148119050.187 7  36785291.906    36785283.633
 196311182.742 7 151800221.777 7  37699498.953    37699496.000
 208029698.210 6 160861788.440 6  39949917.734    39949922.613
 192348759.171 7 148736275.716 7  36938540.578    36938538.215
 196464728.734 7 151919052.371 6  37728986.094    37728982.352
 190120492.692 6 147013192.906 7  36510645.336    36510639.523
 191718846.115 7 148249137.557 7  36817590.875    36817585.238
 18  5 16  3  1  6.0000000  0 11C02C05C04C08C01C10C13C09C06C03C07
 195914950.067 6 151493828.862 7  37623411.969    37623407.242
 206767048.181 5 159885385.053 5  39707456.000    39707452.250
 197704925.934 6 152877958.672 6  37967157.406    37967153.227
 199386372.256 6 154178194.643 6  38290054.523    38290050.961
 191550623.014 6 148119035.886 7  36785288.508    36785280.102
 196311159.384 6 151800203.711 7  37699494.344    37699491.746
 208028210.053 6 160860637.705 6  39949631.617    39949637.031
 192350046.590 7 148737271.229 7  36938787.664    36938785.539
 196466298.176 7 151920265.966 6  37729287.641    37729283.859
 190120473.394 6 147013177.985 7  36510641.789    36510636.066
 191718715.650 7 148249036.674 7  36817565.984    36817560.023
 18  5 16  3  1  7.0000000  0 11C02C05C04C08C01C10C13C09C06C03C07
 195914941.523 6 151493822.258 7  37623410.297    37623405.727
 206767040.221 5 159885378.906 5  39707455.039    39707450.723
 197704916.183 6 152877951.122 6  37967155.828    37967151.043
 199384651.299 6 154176863.892 6  38289723.648    38289720.496
 191550604.280 6 148119021.402 7  36785285.023    36785276.547
 196311135.680 6 151800185.391 7  37699489.625    37699487.176
 208026721.626 6 160859486.763 6  39949346.047    39949351.078
 192351333.890 7 148738266.649 7  36939035.242    36939032.535
 196467867.399 6 151921479.381 6  37729588.609    37729585.422
 190120453.812 6 147013162.839 7  36510637.852    36510632.059
 191718584.822 7 148248935.508 7  36817541.102    36817535.012
 18  5 16  3  1  8.0000000  0 11C02C05C04C08C01C10C13C09C06C03C07
 195914933.240 6 151493815.855 7  37623409.813    37623404.211
 206767032.515 5 159885372.947 5  39707453.297    39707449.469
 197704906.612 6 152877943.728 6  37967154.148    37967149.535
 199382930.657 6 154175533.385 6  38289393.672    38289389.859
 191550585.772 6 148119007.090 7  36785281.320    36785272.625
 196311112.104 7 151800167.163 7  37699485.367    37699482.195
 208025233.328 6 160858335.918 6  39949060.320    39949065.539
 192352621.514 7 148739262.322 7  36939281.969    36939279.887
 196469436.867 6 151922692.995 6  37729890.492    37729886.512
 190120434.480 6 147013147.889 7  36510634.258    36510628.273
 191718454.082 7 148248834.416 7  36817516.242    36817509.613
 18  5 16  3  1  9.0000000  0 11C02C05C04C08C01C10C13C09C06C03C07
 195914924.709 6 151493809.256 7  37623407.398    37623402.793
 206767024.487 6 159885366.738 5  39707452.125    39707447.570
 197704896.858 6 152877936.191 6  37967152.352    37967147.430
 199381209.742 6 154174202.670 6  38289062.781    38289059.422
 191550567.013 6 148118992.588 7  36785277.969    36785269.082
 196311088.213 7 151800148.693 7  37699480.883    37699477.781
 208023744.810 6 160857184.906 6  39948774.055    39948779.625
 192353909.055 7 148740257.931 7  36939530.023    36939527.961
 196471006.161 7 151923906.474 6  37730191.500    37730188.105
 190120414.885 6 147013132.734 7  36510630.320    36510624.629
 191718323.057 7 148248733.099 7  36817490.828    36817484.379
 18  5 16  3  1 10.0000000  0 11C02C05C04C08C01C10C13C09C06C03C07
 195914915.974 5 151493802.498 7  37623406.656    37623401.055
 206767016.337 5 159885360.432 5  39707449.641    39707446.148
 197704886.938 6 152877928.523 6  37967150.664    37967145.926
 199379488.692 6 154172871.846 6  38288732.234    38288729.117
 191550548.058 6 148118977.927 7  36785274.141    36785265.414
 196311064.041 7 151800130.000 7  37699475.984    37699473.125
 208022256.017 6 160856033.673 6  39948488.648    39948493.684
 192355196.568 7 148741253.523 7  36939776.813    36939774.680
 196472575.337 7 151925119.859 6  37730493.242    37730489.223
 190120395.119 6 147013117.445 7  36510626.305    36510620.855
 191718191.758 7 148248631.568 7  36817465.766    36817459.297
 18  5 16  3  1 11.0000000  0 11C02C05C04C08C01C10C13C09C06C03C07
 195914907.539 6 151493795.971 7  37623404.648    37623399.082
 206767008.454 5 159885354.334 5  39707447.656    39707444.770
 197704877.266 6 152877921.043 6  37967148.648    37967144.109
 199377768.031 6 154171541.327 6  38288401.555    38288398.301
 191550529.401 6 148118963.499 7  36785270.008    36785261.906
 196311040.084 6 151800111.467 7  37699471.406    37699468.727
 208020767.499 6 160854882.659 6  39948202.063    39948207.766
 192356484.494 7 148742249.425 7  36940024.367    36940022.211
 196474144.856 7 151926333.501 6  37730794.000    37730790.492
 190120375.665 6 147013102.401 7  36510622.445    36510617.168
 191718060.662 7 148248530.192 7  36817440.078    36817434.426
 18  5 16  3  1 12.0000000  0 11C02C05C04C08C01C10C13C09C06C03C07
 195914899.261 6 151493789.564 7  37623402.688    37623397.598
 206767000.736 5 159885348.362 5  39707447.039    39707442.934
 197704867.775 6 152877913.697 6  37967146.727    37967141.934
 199376047.519 6 154170210.913 6  38288071.406    38288068.520
 191550510.898 6 148118949.193 7  36785266.813    36785258.082
 196311016.215 7 151800093.007 7  37699466.969    37699463.797
 208019279.139 6 160853731.759 6  39947916.367    39947922.133
 192357772.696 7 148743245.541 7  36940272.063    36940269.438
 196475714.570 7 151927547.300 6  37731095.484    37731091.746
 190120356.349 6 147013087.468 7  36510618.516    36510613.469
 191717929.649 7 148248428.886 7  36817415.219    36817409.168
 18  5 16  3  1 13.0000000  0 11C02C05C04C08C01C10C13C09C06C03C07
 195914890.644 6 151493782.899 7  37623401.625    37623396.047
 206766992.671 5 159885342.124 5  39707445.898    39707441.387
 197704857.944 6 152877906.094 6  37967144.555    37967140.137
 199374326.721 6 154168880.287 6  38287740.742    38287738.027
 191550492.074 6 148118934.633 7  36785263.352    36785255.012
 196310991.903 6 151800074.211 7  37699462.102    37699459.605
 208017790.320 6 160852580.502 6  39947630.484    39947636.074
 192359060.712 7 148744241.518 7  36940519.297    36940517.016
 196477284.015 7 151928760.899 6  37731397.063    37731393.266
 190120336.701 6 147013072.276 7  36510615.070    36510609.813
 191717798.207 7 148248327.246 7  36817389.672    36817383.594
 18  5 16  3  1 14.0000000  0 11C02C05C04C08C01C10C13C09C06C03C07
 195914882.227 6 151493776.389 7  37623399.961    37623394.148
 206766984.764 5 159885336.011 5  39707443.820    39707440.137
 197704848.267 6 152877898.615 6  37967142.844    37967138.082
 199372606.144 6 154167549.823 6  38287410.078    38287407.445
 191550473.450 6 148118920.232 7  36785259.781    36785251.074
 196310967.707 6 151800055.504 7  37699457.555    37699454.441
 208016301.743 6 160851429.439 6  39947344.383    39947350.008
 192360349.066 7 148745237.756 7  36940766.313    36940764.344
 196478853.662 6 151929974.646 6  37731698.156    37731694.324
 190120317.227 6 147013057.220 7  36510611.336    36510605.949
 191717666.854 7 148248225.676 7  36817364.555    36817358.785
 18  5 16  3  1 15.0000000  0 11C02C05C04C08C01C10C13C09C06C03C07
